timestamp,date,latitude,longitude
1642601960,"2022-01-19 14:19:20",45.071187,7.692973
1642601967,"2022-01-19 14:19:27",45.071201,7.692936
1642601983,"2022-01-19 14:19:43",45.071192,7.69382
1642601985,"2022-01-19 14:19:45",45.071182,7.693646
1642601987,"2022-01-19 14:19:47",45.07114,7.693489
1642601990,"2022-01-19 14:19:50",45.071104,7.69337
1642601998,"2022-01-19 14:19:58",45.071091,7.693241
1642602011,"2022-01-19 14:20:11",45.071091,7.693241
1642602911,"2022-01-19 14:35:11",45.07118,7.693385
1642602959,"2022-01-19 14:35:59",45.071045,7.693042
1642603014,"2022-01-19 14:36:54",45.071047,7.693175
1642603020,"2022-01-19 14:37:00",45.071004,7.693044
1642603057,"2022-01-19 14:37:37",45.071099,7.692997
1642603080,"2022-01-19 14:38:00",45.071121,7.693172
1642603305,"2022-01-19 14:41:45",45.071101,7.6933
1642603688,"2022-01-19 14:48:08",45.071231,7.693416
1642603766,"2022-01-19 14:49:26",45.071145,7.693374
1642603953,"2022-01-19 14:52:33",45.071051,7.693204
1642603966,"2022-01-19 14:52:46",45.071026,7.693069
1642603996,"2022-01-19 14:53:16",45.071042,7.693036
1642604060,"2022-01-19 14:54:20",45.071173,7.693026
1642604074,"2022-01-19 14:54:34",45.071089,7.693096
1642604127,"2022-01-19 14:55:27",45.071002,7.693111
1642604297,"2022-01-19 14:58:17",45.071152,7.693191
1642604303,"2022-01-19 14:58:23",45.071108,7.693079
1642604319,"2022-01-19 14:58:39",45.071168,7.693273
1642604451,"2022-01-19 15:00:51",45.071083,7.69313
1642604463,"2022-01-19 15:01:03",45.071144,7.693271
1642604481,"2022-01-19 15:01:21",45.071101,7.693158
1642604488,"2022-01-19 15:01:28",45.071062,7.693033
1642604614,"2022-01-19 15:03:34",45.071116,7.693178
1642604656,"2022-01-19 15:04:16",45.071208,7.693172
1642604669,"2022-01-19 15:04:29",45.07113,7.693092
1642604684,"2022-01-19 15:04:44",45.0711,7.692967
1642604780,"2022-01-19 15:06:20",45.07106,7.69311
1642604798,"2022-01-19 15:06:38",45.071028,7.69296
1642604800,"2022-01-19 15:06:40",45.071031,7.69279
1642604802,"2022-01-19 15:06:42",45.071118,7.6929
1642604820,"2022-01-19 15:07:00",45.071028,7.692918
1642604866,"2022-01-19 15:07:46",45.071094,7.693006
1642604875,"2022-01-19 15:07:55",45.07118,7.693052
1642604888,"2022-01-19 15:08:08",45.071161,7.692913
1642604895,"2022-01-19 15:08:15",45.071114,7.692747
1642604921,"2022-01-19 15:08:41",45.071094,7.692954
1642605050,"2022-01-19 15:10:50",45.071121,7.693114
1642605067,"2022-01-19 15:11:07",45.07102,7.693029
1642605089,"2022-01-19 15:11:29",45.071106,7.692981
1642605093,"2022-01-19 15:11:33",45.07113,7.692837
1642605111,"2022-01-19 15:11:51",45.07107,7.692936
1642605175,"2022-01-19 15:12:55",45.07114,7.69323
1642605420,"2022-01-19 15:17:00",45.071078,7.693014
1642605828,"2022-01-19 15:23:48",45.071122,7.693336
1642606457,"2022-01-19 15:34:17",45.071253,7.693214
1642606830,"2022-01-19 15:40:30",45.071099,7.69289
1642606933,"2022-01-19 15:42:13",45.07103,7.692972
1642607118,"2022-01-19 15:45:18",45.071192,7.693302
1642607148,"2022-01-19 15:45:48",45.071206,7.693151
1642607233,"2022-01-19 15:47:13",45.071339,7.693141
1642607240,"2022-01-19 15:47:20",45.071248,7.693099
1642607268,"2022-01-19 15:47:48",45.07114,7.693214
1642607331,"2022-01-19 15:48:51",45.071114,7.693075
1642607379,"2022-01-19 15:49:39",45.071113,7.69312
1642607386,"2022-01-19 15:49:46",45.071121,7.693123
1642607387,"2022-01-19 15:49:47",45.071124,7.693131
1642607388,"2022-01-19 15:49:48",45.071128,7.69312
1642607407,"2022-01-19 15:50:07",45.071185,7.693231
1642607424,"2022-01-19 15:50:24",45.071152,7.693192
1642607428,"2022-01-19 15:50:28",45.071257,7.693215
1642607496,"2022-01-19 15:51:36",45.071165,7.6932
1642607583,"2022-01-19 15:53:03",45.071151,7.693062
1642607620,"2022-01-19 15:53:40",45.071115,7.693144
1642607621,"2022-01-19 15:53:41",45.071114,7.69313
1642607690,"2022-01-19 15:54:50",45.071206,7.693203
1642607699,"2022-01-19 15:54:59",45.07124,7.693325
1642607772,"2022-01-19 15:56:12",45.0711,7.693162
1642607784,"2022-01-19 15:56:24",45.071068,7.693039
1642607810,"2022-01-19 15:56:50",45.071093,7.692907
1642607848,"2022-01-19 15:57:28",45.07117,7.69283
1642607895,"2022-01-19 15:58:15",45.071079,7.692887
1642607908,"2022-01-19 15:58:28",45.070997,7.692793
1642607931,"2022-01-19 15:58:51",45.070915,7.69285
1642607936,"2022-01-19 15:58:56",45.070921,7.693022
1642607949,"2022-01-19 15:59:09",45.071123,7.693019
1642607956,"2022-01-19 15:59:16",45.071214,7.693072
1642607959,"2022-01-19 15:59:19",45.071239,7.693018
1642607967,"2022-01-19 15:59:27",45.071154,7.693124
1642607968,"2022-01-19 15:59:28",45.071138,7.692985
1642607971,"2022-01-19 15:59:31",45.071151,7.692896
1642607977,"2022-01-19 15:59:37",45.071268,7.692949
1642607986,"2022-01-19 15:59:46",45.071341,7.692866
1642607996,"2022-01-19 15:59:56",45.071355,7.692731
1642608005,"2022-01-19 16:00:05",45.071371,7.692597
1642608013,"2022-01-19 16:00:13",45.071298,7.692512
1642608030,"2022-01-19 16:00:30",45.071208,7.692482
1642608040,"2022-01-19 16:00:40",45.071131,7.692406
1642608049,"2022-01-19 16:00:49",45.071046,7.692337
1642608057,"2022-01-19 16:00:57",45.070953,7.692264
1642608064,"2022-01-19 16:01:04",45.070887,7.692176
1642608073,"2022-01-19 16:01:13",45.07081,7.692107
1642608083,"2022-01-19 16:01:23",45.070727,7.692025
1642608095,"2022-01-19 16:01:35",45.07064,7.691976
1642608103,"2022-01-19 16:01:43",45.070548,7.691917
1642608109,"2022-01-19 16:01:49",45.070465,7.691867
1642608116,"2022-01-19 16:01:56",45.070388,7.691772
1642608122,"2022-01-19 16:02:02",45.070309,7.691672
1642608130,"2022-01-19 16:02:10",45.07023,7.691609
1642608139,"2022-01-19 16:02:19",45.070147,7.691536
1642608146,"2022-01-19 16:02:26",45.070042,7.691541
1642608154,"2022-01-19 16:02:34",45.069945,7.691493
1642608160,"2022-01-19 16:02:40",45.069863,7.691429
1642608166,"2022-01-19 16:02:46",45.069775,7.691368
1642608173,"2022-01-19 16:02:53",45.069685,7.691317
1642608181,"2022-01-19 16:03:01",45.0696,7.691273
1642608189,"2022-01-19 16:03:09",45.069521,7.691178
1642608195,"2022-01-19 16:03:15",45.069426,7.69113
1642608201,"2022-01-19 16:03:21",45.069336,7.691074
1642608211,"2022-01-19 16:03:31",45.069273,7.690983
1642608217,"2022-01-19 16:03:37",45.069205,7.690887
1642608228,"2022-01-19 16:03:48",45.069107,7.690842
1642608232,"2022-01-19 16:03:52",45.069016,7.690898
1642608243,"2022-01-19 16:04:03",45.068919,7.690915
1642608248,"2022-01-19 16:04:08",45.068838,7.690841
1642608253,"2022-01-19 16:04:13",45.068774,7.690751
1642608259,"2022-01-19 16:04:19",45.068686,7.690686
1642608273,"2022-01-19 16:04:33",45.068728,7.690569
1642608321,"2022-01-19 16:05:21",45.068817,7.690551
1642608333,"2022-01-19 16:05:33",45.068914,7.690541
1642608338,"2022-01-19 16:05:38",45.068963,7.690663
1642608340,"2022-01-19 16:05:40",45.069021,7.690774
1642608343,"2022-01-19 16:05:43",45.069152,7.690801
1642608345,"2022-01-19 16:05:45",45.069298,7.690851
1642608347,"2022-01-19 16:05:47",45.069432,7.690924
1642608349,"2022-01-19 16:05:49",45.069544,7.691076
1642608351,"2022-01-19 16:05:51",45.069646,7.691193
1642608353,"2022-01-19 16:05:53",45.069754,7.691294
1642608355,"2022-01-19 16:05:55",45.069877,7.691411
1642608357,"2022-01-19 16:05:57",45.06996,7.691548
1642608359,"2022-01-19 16:05:59",45.070045,7.691595
1642608361,"2022-01-19 16:06:01",45.070121,7.691721
1642608363,"2022-01-19 16:06:03",45.070224,7.691832
1642608366,"2022-01-19 16:06:06",45.070319,7.691885
1642608383,"2022-01-19 16:06:23",45.070365,7.691774
1642608425,"2022-01-19 16:07:05",45.070508,7.691842
1642608459,"2022-01-19 16:07:39",45.070566,7.691942
1642608491,"2022-01-19 16:08:11",45.070625,7.691835
1642608517,"2022-01-19 16:08:37",45.07058,7.691964
1642608525,"2022-01-19 16:08:45",45.070671,7.691921
1642608527,"2022-01-19 16:08:47",45.070826,7.692029
1642608529,"2022-01-19 16:08:49",45.070961,7.692065
1642608531,"2022-01-19 16:08:51",45.071082,7.692151
1642608533,"2022-01-19 16:08:53",45.07116,7.692232
1642608536,"2022-01-19 16:08:56",45.071254,7.692308
1642608559,"2022-01-19 16:09:19",45.071253,7.692438
1642608608,"2022-01-19 16:10:08",45.071356,7.692566
1642608610,"2022-01-19 16:10:10",45.071452,7.69262
1642608612,"2022-01-19 16:10:12",45.071535,7.692686
1642608615,"2022-01-19 16:10:15",45.071638,7.692745
1642608624,"2022-01-19 16:10:24",45.071732,7.692803
1642608633,"2022-01-19 16:10:33",45.071844,7.692841
1642608639,"2022-01-19 16:10:39",45.071948,7.69293
1642608643,"2022-01-19 16:10:43",45.072052,7.692973
1642608648,"2022-01-19 16:10:48",45.072146,7.693038
1642608710,"2022-01-19 16:11:50",45.072153,7.692911
1642608721,"2022-01-19 16:12:01",45.072239,7.692989
1642608751,"2022-01-19 16:12:31",45.07231,7.693077
1642608769,"2022-01-19 16:12:49",45.072399,7.693139
1642608771,"2022-01-19 16:12:51",45.072474,7.693251
1642608791,"2022-01-19 16:13:11",45.072545,7.693332
1642608806,"2022-01-19 16:13:26",45.072639,7.693375
1642608855,"2022-01-19 16:14:15",45.072735,7.693384
1642608866,"2022-01-19 16:14:26",45.07281,7.693457
1642608868,"2022-01-19 16:14:28",45.072912,7.693511
1642608871,"2022-01-19 16:14:31",45.073011,7.693589
1642608895,"2022-01-19 16:14:55",45.073078,7.693678
1642608917,"2022-01-19 16:15:17",45.073177,7.693635
1642608983,"2022-01-19 16:16:23",45.073222,7.693759
1642608985,"2022-01-19 16:16:25",45.073311,7.693914
1642608987,"2022-01-19 16:16:27",45.073382,7.693997
1642608989,"2022-01-19 16:16:29",45.073485,7.694058
1642608991,"2022-01-19 16:16:31",45.073588,7.694107
1642608992,"2022-01-19 16:16:32",45.073662,7.69418
1642608994,"2022-01-19 16:16:34",45.07381,7.694306
1642608996,"2022-01-19 16:16:36",45.073923,7.694404
1642608998,"2022-01-19 16:16:38",45.074021,7.694468
1642609002,"2022-01-19 16:16:42",45.07411,7.694513
1642609006,"2022-01-19 16:16:46",45.074085,7.694648
1642609008,"2022-01-19 16:16:48",45.074032,7.694768
1642609011,"2022-01-19 16:16:51",45.073979,7.694872
1642609028,"2022-01-19 16:17:08",45.073973,7.69507
1642609030,"2022-01-19 16:17:10",45.073944,7.695252
1642609031,"2022-01-19 16:17:11",45.073894,7.695479
1642609032,"2022-01-19 16:17:12",45.073872,7.695607
1642609033,"2022-01-19 16:17:13",45.073867,7.695741
1642609034,"2022-01-19 16:17:14",45.073879,7.695885
1642609035,"2022-01-19 16:17:15",45.07389,7.696024
1642609037,"2022-01-19 16:17:17",45.073908,7.696268
1642609039,"2022-01-19 16:17:19",45.073936,7.696487
1642609041,"2022-01-19 16:17:21",45.073985,7.696689
1642609043,"2022-01-19 16:17:23",45.074017,7.696954
1642609044,"2022-01-19 16:17:24",45.074041,7.697081
1642609046,"2022-01-19 16:17:26",45.074113,7.697348
1642609047,"2022-01-19 16:17:27",45.074164,7.697473
1642609048,"2022-01-19 16:17:28",45.074218,7.697592
1642609049,"2022-01-19 16:17:29",45.074273,7.697712
1642609050,"2022-01-19 16:17:30",45.074328,7.697835
1642609051,"2022-01-19 16:17:31",45.074382,7.697952
1642609052,"2022-01-19 16:17:32",45.074436,7.698067
1642609053,"2022-01-19 16:17:33",45.074486,7.698175
1642609054,"2022-01-19 16:17:34",45.074539,7.698294
1642609055,"2022-01-19 16:17:35",45.074593,7.698409
1642609056,"2022-01-19 16:17:36",45.074645,7.69852
1642609057,"2022-01-19 16:17:37",45.074695,7.698636
1642609059,"2022-01-19 16:17:39",45.074786,7.69884
1642609061,"2022-01-19 16:17:41",45.074854,7.699003
1642609067,"2022-01-19 16:17:47",45.074885,7.699132
1642609080,"2022-01-19 16:18:00",45.074929,7.699265
1642609083,"2022-01-19 16:18:03",45.074972,7.699398
1642609086,"2022-01-19 16:18:06",45.075034,7.699554
1642609089,"2022-01-19 16:18:09",45.075154,7.699627
1642609091,"2022-01-19 16:18:11",45.07527,7.699549
1642609094,"2022-01-19 16:18:14",45.075381,7.699435
1642609096,"2022-01-19 16:18:16",45.075526,7.699323
1642609097,"2022-01-19 16:18:17",45.075611,7.699253
1642609098,"2022-01-19 16:18:18",45.075693,7.699179
1642609099,"2022-01-19 16:18:19",45.075777,7.699107
1642609100,"2022-01-19 16:18:20",45.075865,7.699029
1642609101,"2022-01-19 16:18:21",45.075957,7.698951
1642609102,"2022-01-19 16:18:22",45.076048,7.698877
1642609103,"2022-01-19 16:18:23",45.076142,7.698797
1642609104,"2022-01-19 16:18:24",45.076223,7.698717
1642609106,"2022-01-19 16:18:26",45.076351,7.698589
1642609108,"2022-01-19 16:18:28",45.076444,7.698535
1642609112,"2022-01-19 16:18:32",45.076525,7.698441
1642609118,"2022-01-19 16:18:38",45.07669,7.698531
1642609121,"2022-01-19 16:18:41",45.076737,7.698672
1642609123,"2022-01-19 16:18:43",45.076793,7.698779
1642609125,"2022-01-19 16:18:45",45.076853,7.698893
1642609142,"2022-01-19 16:19:02",45.076933,7.698993
1642609148,"2022-01-19 16:19:08",45.076958,7.699141
1642609152,"2022-01-19 16:19:12",45.07702,7.699274
1642609154,"2022-01-19 16:19:14",45.077092,7.699437
1642609155,"2022-01-19 16:19:15",45.077163,7.699597
1642609156,"2022-01-19 16:19:16",45.07723,7.699747
1642609158,"2022-01-19 16:19:18",45.077295,7.699897
1642609160,"2022-01-19 16:19:20",45.077364,7.70009
1642609162,"2022-01-19 16:19:22",45.077443,7.700274
1642609164,"2022-01-19 16:19:24",45.077514,7.700501
1642609166,"2022-01-19 16:19:26",45.07759,7.700718
1642609167,"2022-01-19 16:19:27",45.077626,7.700845
1642609168,"2022-01-19 16:19:28",45.07766,7.700969
1642609170,"2022-01-19 16:19:30",45.077708,7.701168
1642609172,"2022-01-19 16:19:32",45.077747,7.701323
1642609174,"2022-01-19 16:19:34",45.077775,7.701452
1642609179,"2022-01-19 16:19:39",45.077793,7.701596
1642609199,"2022-01-19 16:19:59",45.077857,7.701728
1642609204,"2022-01-19 16:20:04",45.077912,7.701854
1642609206,"2022-01-19 16:20:06",45.077788,7.702024
1642609209,"2022-01-19 16:20:09",45.077673,7.702124
1642609212,"2022-01-19 16:20:12",45.077569,7.702211
1642609222,"2022-01-19 16:20:22",45.077491,7.702288
1642609233,"2022-01-19 16:20:33",45.077384,7.702377
1642609236,"2022-01-19 16:20:36",45.077288,7.702462
1642609238,"2022-01-19 16:20:38",45.077191,7.702547
1642609239,"2022-01-19 16:20:39",45.077111,7.702617
1642609241,"2022-01-19 16:20:41",45.076956,7.702755
1642609242,"2022-01-19 16:20:42",45.076863,7.70282
1642609243,"2022-01-19 16:20:43",45.07675,7.70294
1642609244,"2022-01-19 16:20:44",45.076652,7.70304
1642609245,"2022-01-19 16:20:45",45.076569,7.703129
1642609246,"2022-01-19 16:20:46",45.076484,7.703218
1642609247,"2022-01-19 16:20:47",45.076403,7.703305
1642609248,"2022-01-19 16:20:48",45.076329,7.703385
1642609250,"2022-01-19 16:20:50",45.076216,7.703506
1642609252,"2022-01-19 16:20:52",45.07612,7.703609
1642609255,"2022-01-19 16:20:55",45.07604,7.703693
1642609266,"2022-01-19 16:21:06",45.075961,7.703776
1642609297,"2022-01-19 16:21:37",45.07586,7.703879
1642609299,"2022-01-19 16:21:39",45.07575,7.703982
1642609300,"2022-01-19 16:21:40",45.075673,7.704054
1642609301,"2022-01-19 16:21:41",45.075591,7.704129
1642609302,"2022-01-19 16:21:42",45.075504,7.704194
1642609303,"2022-01-19 16:21:43",45.075422,7.704274
1642609304,"2022-01-19 16:21:44",45.075332,7.704359
1642609305,"2022-01-19 16:21:45",45.075248,7.704448
1642609306,"2022-01-19 16:21:46",45.075161,7.704543
1642609307,"2022-01-19 16:21:47",45.075071,7.704637
1642609308,"2022-01-19 16:21:48",45.074977,7.704728
1642609309,"2022-01-19 16:21:49",45.07488,7.704822
1642609310,"2022-01-19 16:21:50",45.074776,7.704902
1642609311,"2022-01-19 16:21:51",45.074684,7.704971
1642609312,"2022-01-19 16:21:52",45.074596,7.705043
1642609313,"2022-01-19 16:21:53",45.074514,7.705106
1642609315,"2022-01-19 16:21:55",45.074387,7.705201
1642609334,"2022-01-19 16:22:14",45.074299,7.705238
1642609340,"2022-01-19 16:22:20",45.074147,7.70538
1642609341,"2022-01-19 16:22:21",45.074076,7.705463
1642609342,"2022-01-19 16:22:22",45.073998,7.705535
1642609343,"2022-01-19 16:22:23",45.073918,7.705601
1642609345,"2022-01-19 16:22:25",45.073782,7.705726
1642609346,"2022-01-19 16:22:26",45.073709,7.705805
1642609347,"2022-01-19 16:22:27",45.073636,7.705885
1642609348,"2022-01-19 16:22:28",45.073563,7.705961
1642609350,"2022-01-19 16:22:30",45.073396,7.706117
1642609351,"2022-01-19 16:22:31",45.073317,7.706184
1642609352,"2022-01-19 16:22:32",45.073242,7.706257
1642609354,"2022-01-19 16:22:34",45.073109,7.706376
1642609356,"2022-01-19 16:22:36",45.073004,7.706455
1642609358,"2022-01-19 16:22:38",45.072903,7.706534
1642609360,"2022-01-19 16:22:40",45.072817,7.70661
1642609363,"2022-01-19 16:22:43",45.072739,7.706692
1642609366,"2022-01-19 16:22:46",45.072638,7.706766
1642609368,"2022-01-19 16:22:48",45.07253,7.706838
1642609370,"2022-01-19 16:22:50",45.07242,7.70692
1642609372,"2022-01-19 16:22:52",45.07234,7.707013
1642609375,"2022-01-19 16:22:55",45.072237,7.707073
1642609382,"2022-01-19 16:23:02",45.072149,7.707137
1642609395,"2022-01-19 16:23:15",45.072044,7.707207
1642609400,"2022-01-19 16:23:20",45.07194,7.7073
1642609402,"2022-01-19 16:23:22",45.071912,7.707427
1642609405,"2022-01-19 16:23:25",45.071965,7.707534
1642609407,"2022-01-19 16:23:27",45.071996,7.707719
1642609408,"2022-01-19 16:23:28",45.072024,7.707881
1642609411,"2022-01-19 16:23:31",45.072061,7.708018
1642609419,"2022-01-19 16:23:39",45.072097,7.708141
1642609432,"2022-01-19 16:23:52",45.072135,7.708262
1642609435,"2022-01-19 16:23:55",45.072167,7.708402
1642609437,"2022-01-19 16:23:57",45.07217,7.708547
1642609439,"2022-01-19 16:23:59",45.072185,7.70871
1642609442,"2022-01-19 16:24:02",45.072231,7.70891
1642609444,"2022-01-19 16:24:04",45.072285,7.709101
1642609446,"2022-01-19 16:24:06",45.072323,7.709258
1642609448,"2022-01-19 16:24:08",45.072366,7.709435
1642609450,"2022-01-19 16:24:10",45.07237,7.709612
1642609455,"2022-01-19 16:24:15",45.072346,7.709737
1642609463,"2022-01-19 16:24:23",45.072302,7.709855
1642609475,"2022-01-19 16:24:35",45.072328,7.709992
1642609478,"2022-01-19 16:24:38",45.072354,7.710149
1642609480,"2022-01-19 16:24:40",45.072385,7.710356
1642609482,"2022-01-19 16:24:42",45.072443,7.71058
1642609484,"2022-01-19 16:24:44",45.072472,7.710809
1642609485,"2022-01-19 16:24:45",45.072501,7.710943
1642609486,"2022-01-19 16:24:46",45.072532,7.711087
1642609487,"2022-01-19 16:24:47",45.072563,7.711214
1642609488,"2022-01-19 16:24:48",45.072605,7.711371
1642609490,"2022-01-19 16:24:50",45.072658,7.711599
1642609491,"2022-01-19 16:24:51",45.072685,7.711722
1642609493,"2022-01-19 16:24:53",45.072719,7.711947
1642609494,"2022-01-19 16:24:54",45.072739,7.712077
1642609495,"2022-01-19 16:24:55",45.072756,7.712211
1642609496,"2022-01-19 16:24:56",45.072776,7.712338
1642609498,"2022-01-19 16:24:58",45.072821,7.712584
1642609500,"2022-01-19 16:25:00",45.072849,7.712787
1642609502,"2022-01-19 16:25:02",45.072877,7.712969
1642609506,"2022-01-19 16:25:06",45.0729,7.713125
1642609510,"2022-01-19 16:25:10",45.072941,7.713256
1642609515,"2022-01-19 16:25:15",45.073012,7.71334
1642609565,"2022-01-19 16:26:05",45.073039,7.713467
1642609568,"2022-01-19 16:26:08",45.073059,7.713625
1642609570,"2022-01-19 16:26:10",45.073086,7.713761
1642609572,"2022-01-19 16:26:12",45.073121,7.713993
1642609573,"2022-01-19 16:26:13",45.073126,7.714151
1642609574,"2022-01-19 16:26:14",45.073139,7.714288
1642609575,"2022-01-19 16:26:15",45.073151,7.714428
1642609577,"2022-01-19 16:26:17",45.073193,7.714679
1642609579,"2022-01-19 16:26:19",45.073218,7.714913
1642609581,"2022-01-19 16:26:21",45.073239,7.715152
1642609583,"2022-01-19 16:26:23",45.073266,7.715413
1642609584,"2022-01-19 16:26:24",45.073273,7.715558
1642609586,"2022-01-19 16:26:26",45.073327,7.715798
1642609588,"2022-01-19 16:26:28",45.073349,7.716004
1642609590,"2022-01-19 16:26:30",45.07338,7.716216
1642609591,"2022-01-19 16:26:31",45.0734,7.716383
1642609592,"2022-01-19 16:26:32",45.073429,7.716551
1642609593,"2022-01-19 16:26:33",45.073465,7.716693
1642609595,"2022-01-19 16:26:35",45.07353,7.716947
1642609596,"2022-01-19 16:26:36",45.073551,7.717098
1642609597,"2022-01-19 16:26:37",45.073569,7.717233
1642609599,"2022-01-19 16:26:39",45.073606,7.717474
1642609601,"2022-01-19 16:26:41",45.073631,7.717641
1642609603,"2022-01-19 16:26:43",45.073651,7.717795
1642609608,"2022-01-19 16:26:48",45.073683,7.717921
1642609619,"2022-01-19 16:26:59",45.073683,7.718059
1642609628,"2022-01-19 16:27:08",45.073746,7.718186
1642609637,"2022-01-19 16:27:17",45.073695,7.718297
1642609645,"2022-01-19 16:27:25",45.073624,7.718381
1642609651,"2022-01-19 16:27:31",45.073616,7.718478
1642609652,"2022-01-19 16:27:32",45.073612,7.718508
1642609659,"2022-01-19 16:27:39",45.073569,7.71863
1642609668,"2022-01-19 16:27:48",45.0735,7.718713
1642609674,"2022-01-19 16:27:54",45.073428,7.718806
1642609681,"2022-01-19 16:28:01",45.073344,7.718884
1642609690,"2022-01-19 16:28:10",45.073241,7.718951
1642609693,"2022-01-19 16:28:13",45.073152,7.71897
1642609704,"2022-01-19 16:28:24",45.073065,7.719029
1642609712,"2022-01-19 16:28:32",45.072971,7.719047
1642609723,"2022-01-19 16:28:43",45.072872,7.719067
1642609731,"2022-01-19 16:28:51",45.072798,7.718976
1642609735,"2022-01-19 16:28:55",45.072724,7.718863
1642609752,"2022-01-19 16:29:12",45.072673,7.718978
1642609761,"2022-01-19 16:29:21",45.072631,7.719105
1642609764,"2022-01-19 16:29:24",45.072534,7.719135
1642609769,"2022-01-19 16:29:29",45.07243,7.719211
1642609774,"2022-01-19 16:29:34",45.072342,7.719293
1642609779,"2022-01-19 16:29:39",45.072242,7.719343
1642609785,"2022-01-19 16:29:45",45.072174,7.719431
1642609792,"2022-01-19 16:29:52",45.072099,7.719522
1642609795,"2022-01-19 16:29:55",45.07204,7.719627
1642609800,"2022-01-19 16:30:00",45.071951,7.719594
1642609804,"2022-01-19 16:30:04",45.071884,7.719481
1642609815,"2022-01-19 16:30:15",45.07179,7.719452
1642609825,"2022-01-19 16:30:25",45.071695,7.719421
1642609830,"2022-01-19 16:30:30",45.071654,7.7193
1642609835,"2022-01-19 16:30:35",45.071611,7.719182
1642609842,"2022-01-19 16:30:42",45.071537,7.719099
1642609847,"2022-01-19 16:30:47",45.07152,7.718971
1642609853,"2022-01-19 16:30:53",45.071443,7.718905
1642609859,"2022-01-19 16:30:59",45.071358,7.718855
1642609865,"2022-01-19 16:31:05",45.071285,7.718778
1642609879,"2022-01-19 16:31:19",45.071374,7.718845
1642609887,"2022-01-19 16:31:27",45.071421,7.718715
1642609899,"2022-01-19 16:31:39",45.071395,7.71857
1642609944,"2022-01-19 16:32:24",45.071156,7.718636
1642609946,"2022-01-19 16:32:26",45.071035,7.718679
1642609970,"2022-01-19 16:32:50",45.070973,7.718604
1642609982,"2022-01-19 16:33:02",45.070973,7.718604
1642610010,"2022-01-19 16:33:30",45.071439,7.718751
1642610036,"2022-01-19 16:33:56",45.071348,7.718818
1642610102,"2022-01-19 16:35:02",45.071205,7.71872
1642610131,"2022-01-19 16:35:31",45.071369,7.718742
1642610132,"2022-01-19 16:35:32",45.07126,7.718692
1642610836,"2022-01-19 16:47:16",45.0713,7.718815
1642612636,"2022-01-19 17:17:16",45.0713,7.718815
1642612693,"2022-01-19 17:18:13",45.071386,7.71876
1642613785,"2022-01-19 17:36:25",45.071484,7.718656
1642613877,"2022-01-19 17:37:57",45.071307,7.718616
1642613923,"2022-01-19 17:38:43",45.071299,7.718764
1642613938,"2022-01-19 17:38:58",45.071385,7.718698
1642613959,"2022-01-19 17:39:19",45.071278,7.718678
1642614067,"2022-01-19 17:41:07",45.071273,7.718811
1642614121,"2022-01-19 17:42:01",45.071274,7.718677
1642614122,"2022-01-19 17:42:02",45.071272,7.71867
1642614470,"2022-01-19 17:47:50",45.071264,7.718812
1642614595,"2022-01-19 17:49:55",45.071369,7.718742
1642614613,"2022-01-19 17:50:13",45.071288,7.718808
1642614714,"2022-01-19 17:51:54",45.071345,7.7187
1642614917,"2022-01-19 17:55:17",45.071418,7.718793
1642615022,"2022-01-19 17:57:02",45.071302,7.718815
1642615455,"2022-01-19 18:04:15",45.071393,7.718762
1642615456,"2022-01-19 18:04:16",45.071393,7.718761
1642615458,"2022-01-19 18:04:18",45.071249,7.718703
1642615519,"2022-01-19 18:05:19",45.071335,7.718789
1642615657,"2022-01-19 18:07:37",45.071296,7.718666
1642616212,"2022-01-19 18:16:52",45.071328,7.718802
1642617099,"2022-01-19 18:31:39",45.071296,7.718671
1642617161,"2022-01-19 18:32:41",45.071317,7.718802
1642617168,"2022-01-19 18:32:48",45.071417,7.718757
1642617170,"2022-01-19 18:32:50",45.071289,7.718763
1642618246,"2022-01-19 18:50:46",45.071369,7.718742
1642618617,"2022-01-19 18:56:57",45.071283,7.718882
1642618621,"2022-01-19 18:57:01",45.071264,7.718747
1642618627,"2022-01-19 18:57:07",45.071231,7.718738
1642618659,"2022-01-19 18:57:39",45.071222,7.718879
1642618664,"2022-01-19 18:57:44",45.071304,7.718876
1642618668,"2022-01-19 18:57:48",45.071315,7.719016
1642618675,"2022-01-19 18:57:55",45.071354,7.718877
1642618677,"2022-01-19 18:57:57",45.07138,7.718912
1642618683,"2022-01-19 18:58:03",45.071269,7.718779
1642618692,"2022-01-19 18:58:12",45.071181,7.718714
1642618696,"2022-01-19 18:58:16",45.07109,7.718695
1642618701,"2022-01-19 18:58:21",45.071251,7.718835
1642618709,"2022-01-19 18:58:29",45.071144,7.718923
1642618713,"2022-01-19 18:58:33",45.071214,7.718881
1642618730,"2022-01-19 18:58:50",45.071366,7.718851
1642618775,"2022-01-19 18:59:35",45.071281,7.718893
1642618795,"2022-01-19 18:59:55",45.071369,7.718742
1642618864,"2022-01-19 19:01:04",45.071247,7.718888
1642618883,"2022-01-19 19:01:23",45.071369,7.718742
1642619650,"2022-01-19 19:14:10",45.071369,7.718742
1642619659,"2022-01-19 19:14:19",45.071369,7.718742
1642619662,"2022-01-19 19:14:22",45.071369,7.718742
1642619688,"2022-01-19 19:14:48",45.071369,7.718742
1642619690,"2022-01-19 19:14:50",45.071369,7.718742
1642619825,"2022-01-19 19:17:05",45.071291,7.718669
1642619827,"2022-01-19 19:17:07",45.071297,7.718533
1642619830,"2022-01-19 19:17:10",45.07128,7.718701
1642619835,"2022-01-19 19:17:15",45.071337,7.718587
1642619843,"2022-01-19 19:17:23",45.071225,7.71852
1642619853,"2022-01-19 19:17:33",45.071136,7.718574
1642619859,"2022-01-19 19:17:39",45.071087,7.718688
1642619863,"2022-01-19 19:17:43",45.070994,7.718794
1642619914,"2022-01-19 19:18:34",45.071161,7.718749
1642620389,"2022-01-19 19:26:29",45.071249,7.718596
1642620414,"2022-01-19 19:26:54",45.071176,7.718676
1642620428,"2022-01-19 19:27:08",45.071272,7.718678
1642620433,"2022-01-19 19:27:13",45.071383,7.718714
1642620456,"2022-01-19 19:27:36",45.071298,7.718669
1642620850,"2022-01-19 19:34:10",45.071251,7.718782
1642620870,"2022-01-19 19:34:30",45.071338,7.718851
1642620953,"2022-01-19 19:35:53",45.071267,7.718927
1642620966,"2022-01-19 19:36:06",45.07117,7.718971
1642620977,"2022-01-19 19:36:17",45.071214,7.718915
1642620989,"2022-01-19 19:36:29",45.071369,7.718742
1642621002,"2022-01-19 19:36:42",45.071338,7.718907
1642621015,"2022-01-19 19:36:55",45.071369,7.718742
1642621097,"2022-01-19 19:38:17",45.071202,7.718866
1642621100,"2022-01-19 19:38:20",45.07113,7.718765
1642621103,"2022-01-19 19:38:23",45.070993,7.718764
1642621106,"2022-01-19 19:38:26",45.070901,7.718761
1642621107,"2022-01-19 19:38:27",45.070972,7.718854
1642621108,"2022-01-19 19:38:28",45.071172,7.718858
1642621112,"2022-01-19 19:38:32",45.071098,7.718935
1642621119,"2022-01-19 19:38:39",45.071212,7.718964
1642621120,"2022-01-19 19:38:40",45.0713,7.71891
1642621134,"2022-01-19 19:38:54",45.071206,7.718927
1642621149,"2022-01-19 19:39:09",45.071282,7.718848
1642621155,"2022-01-19 19:39:15",45.071271,7.718865
1642621165,"2022-01-19 19:39:25",45.071266,7.718733
1642621167,"2022-01-19 19:39:27",45.071262,7.718766
1642621168,"2022-01-19 19:39:28",45.071349,7.71882
1642621173,"2022-01-19 19:39:33",45.071374,7.718662
1642621180,"2022-01-19 19:39:40",45.071375,7.71891
1642621181,"2022-01-19 19:39:41",45.071358,7.71876
1642621184,"2022-01-19 19:39:44",45.07134,7.7186
1642621189,"2022-01-19 19:39:49",45.071212,7.718543
1642621190,"2022-01-19 19:39:50",45.071209,7.718656
1642621191,"2022-01-19 19:39:51",45.071238,7.718734
1642621195,"2022-01-19 19:39:55",45.071117,7.718625
1642621201,"2022-01-19 19:40:01",45.070999,7.718491
1642621203,"2022-01-19 19:40:03",45.071096,7.718539
1642621215,"2022-01-19 19:40:15",45.07124,7.71869
1642621216,"2022-01-19 19:40:16",45.071269,7.718865
1642621220,"2022-01-19 19:40:20",45.07136,7.718953
1642621224,"2022-01-19 19:40:24",45.071433,7.719052
1642621227,"2022-01-19 19:40:27",45.071365,7.718964
1642621240,"2022-01-19 19:40:40",45.071334,7.719006
1642621281,"2022-01-19 19:41:21",45.071269,7.718821
1642621495,"2022-01-19 19:44:55",45.071276,7.718651
1642621619,"2022-01-19 19:46:59",45.071197,7.718716
1642621632,"2022-01-19 19:47:12",45.071314,7.718754
1642621752,"2022-01-19 19:49:12",45.071293,7.718676
1642634559,"2022-01-19 23:22:39",45.071306,7.718839
1642634581,"2022-01-19 23:23:01",45.071375,7.718948
1642634589,"2022-01-19 23:23:09",45.071461,7.718914
1642634594,"2022-01-19 23:23:14",45.071551,7.718787
1642634607,"2022-01-19 23:23:27",45.071644,7.718843
1642634608,"2022-01-19 23:23:28",45.071661,7.718853
1642634611,"2022-01-19 23:23:31",45.071657,7.718748
1642634619,"2022-01-19 23:23:39",45.071614,7.718927
1642634629,"2022-01-19 23:23:49",45.071562,7.718804
1642634637,"2022-01-19 23:23:57",45.071466,7.718829
1642634640,"2022-01-19 23:24:00",45.07126,7.718842
1642634645,"2022-01-19 23:24:05",45.071152,7.718846
1642634649,"2022-01-19 23:24:09",45.071007,7.718866
1642634652,"2022-01-19 23:24:12",45.071383,7.718883
1642634659,"2022-01-19 23:24:19",45.071483,7.718844
1642634664,"2022-01-19 23:24:24",45.071295,7.718846
1642634669,"2022-01-19 23:24:29",45.071203,7.718839
1642634674,"2022-01-19 23:24:34",45.071315,7.718742
1642634675,"2022-01-19 23:24:35",45.071307,7.71874
1642634677,"2022-01-19 23:24:37",45.071232,7.718899
1642634684,"2022-01-19 23:24:44",45.071141,7.718946
1642634688,"2022-01-19 23:24:48",45.071298,7.718894
1642634728,"2022-01-19 23:25:28",45.071377,7.718783
1642634736,"2022-01-19 23:25:36",45.071341,7.718897
1642634746,"2022-01-19 23:25:46",45.071314,7.718874
1642634754,"2022-01-19 23:25:54",45.071221,7.718916
1642634760,"2022-01-19 23:26:00",45.071348,7.718917
1642634772,"2022-01-19 23:26:12",45.071357,7.718822
1642634778,"2022-01-19 23:26:18",45.071265,7.71882
1642634781,"2022-01-19 23:26:21",45.071544,7.719053
1642634784,"2022-01-19 23:26:24",45.07131,7.718852
1642634831,"2022-01-19 23:27:11",45.071304,7.718849
1642634837,"2022-01-19 23:27:17",45.071441,7.718911
1642634866,"2022-01-19 23:27:46",45.071305,7.718843
1642634924,"2022-01-19 23:28:44",45.071219,7.718907
1642634956,"2022-01-19 23:29:16",45.071287,7.71882
1642635019,"2022-01-19 23:30:19",45.0714,7.718878
1642635023,"2022-01-19 23:30:23",45.071453,7.719004
1642635038,"2022-01-19 23:30:38",45.07154,7.718951
1642635089,"2022-01-19 23:31:29",45.071367,7.718916
1642635114,"2022-01-19 23:31:54",45.071308,7.718888
1642635128,"2022-01-19 23:32:08",45.071414,7.718863
1642635191,"2022-01-19 23:33:11",45.071344,7.71875
1642635192,"2022-01-19 23:33:12",45.071376,7.718899
1642635217,"2022-01-19 23:33:37",45.071371,7.718867
1642635240,"2022-01-19 23:34:00",45.071396,7.718646
1642635250,"2022-01-19 23:34:10",45.071367,7.718778
1642635256,"2022-01-19 23:34:16",45.071298,7.718878
1642635258,"2022-01-19 23:34:18",45.07121,7.718927
1642635260,"2022-01-19 23:34:20",45.071108,7.718988
1642635267,"2022-01-19 23:34:27",45.071238,7.718978
1642635270,"2022-01-19 23:34:30",45.071143,7.718936
1642635279,"2022-01-19 23:34:39",45.071283,7.718845
1642635284,"2022-01-19 23:34:44",45.071377,7.718854
1642635286,"2022-01-19 23:34:46",45.071386,7.718761
1642635302,"2022-01-19 23:35:02",45.071429,7.718876
1642635308,"2022-01-19 23:35:08",45.07141,7.719016
1642635311,"2022-01-19 23:35:11",45.071438,7.718993
1642635326,"2022-01-19 23:35:26",45.071511,7.718917
1642635329,"2022-01-19 23:35:29",45.071549,7.719013
1642635333,"2022-01-19 23:35:33",45.071535,7.719073
1642635343,"2022-01-19 23:35:43",45.071509,7.718905
1642635352,"2022-01-19 23:35:52",45.071465,7.718782
1642635355,"2022-01-19 23:35:55",45.071473,7.718654
1642635356,"2022-01-19 23:35:56",45.071481,7.718627
1642635357,"2022-01-19 23:35:57",45.071535,7.718754
1642635360,"2022-01-19 23:36:00",45.071573,7.718846
1642635365,"2022-01-19 23:36:05",45.071607,7.718718
1642635374,"2022-01-19 23:36:14",45.071649,7.718594
1642635375,"2022-01-19 23:36:15",45.071529,7.718824
1642635384,"2022-01-19 23:36:24",45.071529,7.718688
1642635389,"2022-01-19 23:36:29",45.071565,7.71855
1642635392,"2022-01-19 23:36:32",45.071599,7.718428
1642635393,"2022-01-19 23:36:33",45.071626,7.71821
1642635395,"2022-01-19 23:36:35",45.071609,7.718272
1642635399,"2022-01-19 23:36:39",45.071493,7.718655
1642635421,"2022-01-19 23:37:01",45.071486,7.71852
1642635431,"2022-01-19 23:37:11",45.071459,7.718702
1642635463,"2022-01-19 23:37:43",45.071541,7.718798
1642635473,"2022-01-19 23:37:53",45.071575,7.718968
1642635480,"2022-01-19 23:38:00",45.071612,7.718831
1642635495,"2022-01-19 23:38:15",45.071489,7.718883
1642635499,"2022-01-19 23:38:19",45.071419,7.718981
1642635500,"2022-01-19 23:38:20",45.071555,7.718934
1642635503,"2022-01-19 23:38:23",45.07162,7.718767
1642635508,"2022-01-19 23:38:28",45.071592,7.718532
1642635514,"2022-01-19 23:38:34",45.071511,7.718476
1642635519,"2022-01-19 23:38:39",45.071483,7.7186
1642635527,"2022-01-19 23:38:47",45.071524,7.718814
1642635532,"2022-01-19 23:38:52",45.071546,7.719006
1642635543,"2022-01-19 23:39:03",45.071508,7.719128
1642635544,"2022-01-19 23:39:04",45.071482,7.719253
1642635547,"2022-01-19 23:39:07",45.071515,7.719075
1642635551,"2022-01-19 23:39:11",45.071479,7.718863
1642635553,"2022-01-19 23:39:13",45.071475,7.718704
1642635558,"2022-01-19 23:39:18",45.071465,7.718881
1642635574,"2022-01-19 23:39:34",45.071407,7.718756
1642635586,"2022-01-19 23:39:46",45.071324,7.718704
1642635594,"2022-01-19 23:39:54",45.071421,7.718783
1642635603,"2022-01-19 23:40:03",45.071476,7.718666
1642635634,"2022-01-19 23:40:34",45.071389,7.718604
1642635644,"2022-01-19 23:40:44",45.071287,7.718559
1642635653,"2022-01-19 23:40:53",45.071245,7.718445
1642635665,"2022-01-19 23:41:05",45.071178,7.718533
1642635673,"2022-01-19 23:41:13",45.071274,7.7186
1642635685,"2022-01-19 23:41:25",45.071179,7.718566
1642635686,"2022-01-19 23:41:26",45.071501,7.718607
1642635688,"2022-01-19 23:41:28",45.071691,7.71864
1642635703,"2022-01-19 23:41:43",45.071598,7.71859
1642635711,"2022-01-19 23:41:51",45.071506,7.718562
1642635726,"2022-01-19 23:42:06",45.071507,7.718701
1642635730,"2022-01-19 23:42:10",45.071463,7.718571
1642635732,"2022-01-19 23:42:12",45.071447,7.718426
1642635753,"2022-01-19 23:42:33",45.071419,7.718846
1642635762,"2022-01-19 23:42:42",45.071494,7.718936
1642635770,"2022-01-19 23:42:50",45.071525,7.718782
1642635777,"2022-01-19 23:42:57",45.071523,7.718544
1642635781,"2022-01-19 23:43:01",45.071428,7.718392
1642635783,"2022-01-19 23:43:03",45.071379,7.718197
1642635786,"2022-01-19 23:43:06",45.071437,7.718782
1642635807,"2022-01-19 23:43:27",45.071528,7.718798
1642635824,"2022-01-19 23:43:44",45.071601,7.718697
1642635831,"2022-01-19 23:43:51",45.07163,7.718561
1642635850,"2022-01-19 23:44:10",45.071568,7.718702
1642635871,"2022-01-19 23:44:31",45.071492,7.718606
1642635885,"2022-01-19 23:44:45",45.071403,7.718642
1642635892,"2022-01-19 23:44:52",45.071323,7.71875
1642635918,"2022-01-19 23:45:18",45.07142,7.718773
1642635935,"2022-01-19 23:45:35",45.071344,7.718689
1642635946,"2022-01-19 23:45:46",45.071323,7.718855
1642635957,"2022-01-19 23:45:57",45.071293,7.718712
1642635961,"2022-01-19 23:46:01",45.071296,7.718583
1642635970,"2022-01-19 23:46:10",45.071322,7.718714
1642635974,"2022-01-19 23:46:14",45.071312,7.718841
1642635987,"2022-01-19 23:46:27",45.071389,7.718753
1642635999,"2022-01-19 23:46:39",45.071386,7.718606
1642636045,"2022-01-19 23:47:25",45.071478,7.718591
1642636051,"2022-01-19 23:47:31",45.071611,7.718565
1642636055,"2022-01-19 23:47:35",45.071721,7.71855
1642636061,"2022-01-19 23:47:41",45.071812,7.718583
1642636064,"2022-01-19 23:47:44",45.071438,7.718711
1642636067,"2022-01-19 23:47:47",45.07156,7.718643
1642636071,"2022-01-19 23:47:51",45.071656,7.718622
1642636076,"2022-01-19 23:47:56",45.071555,7.718679
1642636088,"2022-01-19 23:48:08",45.071443,7.718731
1642667368,"2022-01-20 08:29:28",45.071369,7.718742
1642675584,"2022-01-20 10:46:24",45.071369,7.718742
1642677050,"2022-01-20 11:10:50",45.071369,7.718742
1642678217,"2022-01-20 11:30:17",45.071369,7.718742
1642678222,"2022-01-20 11:30:22",45.071369,7.718742
1642678358,"2022-01-20 11:32:38",45.071213,7.718798
1642678359,"2022-01-20 11:32:39",45.071237,7.718745
1642678361,"2022-01-20 11:32:41",45.071234,7.718767
1642678364,"2022-01-20 11:32:44",45.071337,7.718771
1642678369,"2022-01-20 11:32:49",45.071406,7.718856
1642678374,"2022-01-20 11:32:54",45.071497,7.71894
1642678382,"2022-01-20 11:33:02",45.071554,7.719041
1642678389,"2022-01-20 11:33:09",45.071635,7.719122
1642678394,"2022-01-20 11:33:14",45.071654,7.719265
1642678400,"2022-01-20 11:33:20",45.071684,7.719391
1642678408,"2022-01-20 11:33:28",45.071781,7.719384
1642678414,"2022-01-20 11:33:34",45.071878,7.719316
1642678419,"2022-01-20 11:33:39",45.071971,7.719265
1642678426,"2022-01-20 11:33:46",45.072067,7.719313
1642678436,"2022-01-20 11:33:56",45.072164,7.719322
1642678441,"2022-01-20 11:34:01",45.072256,7.71928
1642678447,"2022-01-20 11:34:07",45.072351,7.719276
1642678452,"2022-01-20 11:34:12",45.072443,7.71931
1642678462,"2022-01-20 11:34:22",45.072527,7.719243
1642678467,"2022-01-20 11:34:27",45.072615,7.719173
1642678473,"2022-01-20 11:34:33",45.072665,7.719038
1642678487,"2022-01-20 11:34:47",45.072781,7.719019
1642678493,"2022-01-20 11:34:53",45.07288,7.71903
1642678498,"2022-01-20 11:34:58",45.072972,7.719028
1642678504,"2022-01-20 11:35:04",45.073063,7.718976
1642678516,"2022-01-20 11:35:16",45.073154,7.718942
1642678525,"2022-01-20 11:35:25",45.073244,7.718901
1642678529,"2022-01-20 11:35:29",45.073362,7.71891
1642678532,"2022-01-20 11:35:32",45.073462,7.71893
1642678537,"2022-01-20 11:35:37",45.073545,7.71888
1642678539,"2022-01-20 11:35:39",45.073586,7.718764
1642678542,"2022-01-20 11:35:42",45.073651,7.71863
1642678547,"2022-01-20 11:35:47",45.073733,7.71855
1642678552,"2022-01-20 11:35:52",45.073796,7.718421
1642678557,"2022-01-20 11:35:57",45.073844,7.718296
1642678567,"2022-01-20 11:36:07",45.073891,7.718178
1642678576,"2022-01-20 11:36:16",45.073977,7.718112
1642678582,"2022-01-20 11:36:22",45.073979,7.717979
1642678589,"2022-01-20 11:36:29",45.073939,7.717853
1642678596,"2022-01-20 11:36:36",45.073846,7.717823
1642678603,"2022-01-20 11:36:43",45.073749,7.717833
1642678672,"2022-01-20 11:37:52",45.073674,7.717756
1642678727,"2022-01-20 11:38:47",45.073673,7.717603
1642678729,"2022-01-20 11:38:49",45.073647,7.717429
1642678730,"2022-01-20 11:38:50",45.073654,7.71727
1642678731,"2022-01-20 11:38:51",45.073646,7.717124
1642678732,"2022-01-20 11:38:52",45.073665,7.71695
1642678734,"2022-01-20 11:38:54",45.073648,7.716699
1642678735,"2022-01-20 11:38:55",45.073626,7.716569
1642678736,"2022-01-20 11:38:56",45.073603,7.716394
1642678737,"2022-01-20 11:38:57",45.073579,7.716257
1642678738,"2022-01-20 11:38:58",45.073543,7.716107
1642678739,"2022-01-20 11:38:59",45.073522,7.715966
1642678740,"2022-01-20 11:39:00",45.073514,7.715834
1642678741,"2022-01-20 11:39:01",45.073471,7.71568
1642678742,"2022-01-20 11:39:02",45.073446,7.715541
1642678743,"2022-01-20 11:39:03",45.073417,7.715419
1642678745,"2022-01-20 11:39:05",45.07339,7.715189
1642678747,"2022-01-20 11:39:07",45.07337,7.715037
1642678753,"2022-01-20 11:39:13",45.073395,7.714908
1642678774,"2022-01-20 11:39:34",45.073404,7.714731
1642678776,"2022-01-20 11:39:36",45.073382,7.714607
1642678778,"2022-01-20 11:39:38",45.073358,7.714455
1642678780,"2022-01-20 11:39:40",45.073349,7.714326
1642678783,"2022-01-20 11:39:43",45.073325,7.714191
1642678795,"2022-01-20 11:39:55",45.073261,7.714096
1642678805,"2022-01-20 11:40:05",45.073191,7.713955
1642678807,"2022-01-20 11:40:07",45.073167,7.713831
1642678809,"2022-01-20 11:40:09",45.073155,7.71366
1642678811,"2022-01-20 11:40:11",45.073147,7.713449
1642678812,"2022-01-20 11:40:12",45.073097,7.713264
1642678814,"2022-01-20 11:40:14",45.073068,7.71303
1642678815,"2022-01-20 11:40:15",45.073059,7.712922
1642678816,"2022-01-20 11:40:16",45.073037,7.712805
1642678818,"2022-01-20 11:40:18",45.072999,7.712583
1642678820,"2022-01-20 11:40:20",45.072959,7.712399
1642678822,"2022-01-20 11:40:22",45.072948,7.712229
1642678824,"2022-01-20 11:40:24",45.072913,7.712078
1642678826,"2022-01-20 11:40:26",45.072881,7.711957
1642678828,"2022-01-20 11:40:28",45.072816,7.711759
1642678830,"2022-01-20 11:40:30",45.072767,7.711531
1642678832,"2022-01-20 11:40:32",45.072733,7.711378
1642678835,"2022-01-20 11:40:35",45.072694,7.711204
1642678838,"2022-01-20 11:40:38",45.072703,7.711048
1642678840,"2022-01-20 11:40:40",45.072755,7.710882
1642678850,"2022-01-20 11:40:50",45.072824,7.710732
1642678859,"2022-01-20 11:40:59",45.072784,7.710615
1642678861,"2022-01-20 11:41:01",45.07277,7.710489
1642678863,"2022-01-20 11:41:03",45.072741,7.71035
1642678865,"2022-01-20 11:41:05",45.072702,7.710211
1642678867,"2022-01-20 11:41:07",45.072656,7.710081
1642678869,"2022-01-20 11:41:09",45.072614,7.709855
1642678870,"2022-01-20 11:41:10",45.072576,7.70971
1642678871,"2022-01-20 11:41:11",45.072537,7.709593
1642678873,"2022-01-20 11:41:13",45.07247,7.709417
1642678875,"2022-01-20 11:41:15",45.072443,7.709247
1642678877,"2022-01-20 11:41:17",45.072431,7.709114
1642678881,"2022-01-20 11:41:21",45.072364,7.708991
1642678898,"2022-01-20 11:41:38",45.072367,7.708851
1642678901,"2022-01-20 11:41:41",45.07233,7.708675
1642678903,"2022-01-20 11:41:43",45.072308,7.708537
1642678905,"2022-01-20 11:41:45",45.072275,7.708411
1642678907,"2022-01-20 11:41:47",45.072217,7.708246
1642678909,"2022-01-20 11:41:49",45.072206,7.708065
1642678911,"2022-01-20 11:41:51",45.072187,7.707937
1642678913,"2022-01-20 11:41:53",45.072193,7.707773
1642678915,"2022-01-20 11:41:55",45.072237,7.707631
1642678917,"2022-01-20 11:41:57",45.072304,7.707543
1642678919,"2022-01-20 11:41:59",45.072431,7.707422
1642678921,"2022-01-20 11:42:01",45.072542,7.707278
1642678923,"2022-01-20 11:42:03",45.0727,7.707147
1642678924,"2022-01-20 11:42:04",45.072782,7.707067
1642678925,"2022-01-20 11:42:05",45.072853,7.706968
1642678926,"2022-01-20 11:42:06",45.072921,7.706885
1642678927,"2022-01-20 11:42:07",45.073013,7.706794
1642678928,"2022-01-20 11:42:08",45.073112,7.706714
1642678929,"2022-01-20 11:42:09",45.073222,7.706641
1642678930,"2022-01-20 11:42:10",45.073336,7.706532
1642678931,"2022-01-20 11:42:11",45.073435,7.70644
1642678932,"2022-01-20 11:42:12",45.073522,7.706341
1642678933,"2022-01-20 11:42:13",45.073627,7.706258
1642678934,"2022-01-20 11:42:14",45.073714,7.70618
1642678935,"2022-01-20 11:42:15",45.073798,7.706097
1642678936,"2022-01-20 11:42:16",45.073906,7.706004
1642678937,"2022-01-20 11:42:17",45.074013,7.705898
1642678938,"2022-01-20 11:42:18",45.074105,7.705805
1642678939,"2022-01-20 11:42:19",45.074202,7.705695
1642678940,"2022-01-20 11:42:20",45.074293,7.705626
1642678941,"2022-01-20 11:42:21",45.074377,7.705549
1642678942,"2022-01-20 11:42:22",45.074457,7.705482
1642678944,"2022-01-20 11:42:24",45.074599,7.705363
1642678946,"2022-01-20 11:42:26",45.074689,7.705298
1642678973,"2022-01-20 11:42:53",45.074772,7.70524
1642678977,"2022-01-20 11:42:57",45.074903,7.705143
1642678979,"2022-01-20 11:42:59",45.075026,7.705039
1642678980,"2022-01-20 11:43:00",45.075105,7.704977
1642678981,"2022-01-20 11:43:01",45.075189,7.704924
1642678982,"2022-01-20 11:43:02",45.075278,7.704867
1642678983,"2022-01-20 11:43:03",45.075327,7.70469
1642678984,"2022-01-20 11:43:04",45.075416,7.704614
1642678985,"2022-01-20 11:43:05",45.07551,7.704529
1642678986,"2022-01-20 11:43:06",45.075603,7.704447
1642678987,"2022-01-20 11:43:07",45.075699,7.704367
1642678988,"2022-01-20 11:43:08",45.075795,7.704291
1642678989,"2022-01-20 11:43:09",45.075884,7.704218
1642678990,"2022-01-20 11:43:10",45.075964,7.704112
1642678991,"2022-01-20 11:43:11",45.076041,7.703992
1642678992,"2022-01-20 11:43:12",45.07612,7.703869
1642678993,"2022-01-20 11:43:13",45.076305,7.703623
1642678994,"2022-01-20 11:43:14",45.076394,7.70352
1642678995,"2022-01-20 11:43:15",45.076484,7.703417
1642678996,"2022-01-20 11:43:16",45.076572,7.703316
1642678997,"2022-01-20 11:43:17",45.076707,7.703309
1642678998,"2022-01-20 11:43:18",45.076794,7.703217
1642678999,"2022-01-20 11:43:19",45.076875,7.703135
1642679000,"2022-01-20 11:43:20",45.076954,7.703063
1642679001,"2022-01-20 11:43:21",45.077033,7.702998
1642679003,"2022-01-20 11:43:23",45.077148,7.702897
1642679006,"2022-01-20 11:43:26",45.077245,7.702809
1642679029,"2022-01-20 11:43:49",45.077337,7.702847
1642679037,"2022-01-20 11:43:57",45.077445,7.702752
1642679039,"2022-01-20 11:43:59",45.077545,7.70263
1642679041,"2022-01-20 11:44:01",45.077661,7.70251
1642679043,"2022-01-20 11:44:03",45.077795,7.702414
1642679045,"2022-01-20 11:44:05",45.077958,7.702282
1642679046,"2022-01-20 11:44:06",45.078036,7.702205
1642679047,"2022-01-20 11:44:07",45.078113,7.702134
1642679049,"2022-01-20 11:44:09",45.078254,7.702006
1642679051,"2022-01-20 11:44:11",45.078354,7.701921
1642679060,"2022-01-20 11:44:20",45.078455,7.701877
1642679067,"2022-01-20 11:44:27",45.078528,7.70173
1642679069,"2022-01-20 11:44:29",45.078495,7.701571
1642679071,"2022-01-20 11:44:31",45.078453,7.70145
1642679078,"2022-01-20 11:44:38",45.078409,7.701338
1642679092,"2022-01-20 11:44:52",45.078349,7.701216
1642679095,"2022-01-20 11:44:55",45.078263,7.701055
1642679097,"2022-01-20 11:44:57",45.078165,7.700892
1642679099,"2022-01-20 11:44:59",45.078034,7.700723
1642679100,"2022-01-20 11:45:00",45.077953,7.700618
1642679101,"2022-01-20 11:45:01",45.077874,7.700511
1642679102,"2022-01-20 11:45:02",45.077796,7.700407
1642679103,"2022-01-20 11:45:03",45.077717,7.700296
1642679104,"2022-01-20 11:45:04",45.077648,7.700179
1642679105,"2022-01-20 11:45:05",45.077592,7.700069
1642679107,"2022-01-20 11:45:07",45.07751,7.699907
1642679109,"2022-01-20 11:45:09",45.077408,7.699694
1642679110,"2022-01-20 11:45:10",45.077347,7.699554
1642679111,"2022-01-20 11:45:11",45.077298,7.699444
1642679112,"2022-01-20 11:45:12",45.077245,7.699327
1642679113,"2022-01-20 11:45:13",45.077192,7.699211
1642679114,"2022-01-20 11:45:14",45.077137,7.699089
1642679115,"2022-01-20 11:45:15",45.077078,7.698919
1642679117,"2022-01-20 11:45:17",45.077001,7.698772
1642679119,"2022-01-20 11:45:19",45.076945,7.698638
1642679136,"2022-01-20 11:45:36",45.076887,7.69853
1642679139,"2022-01-20 11:45:39",45.076819,7.698396
1642679143,"2022-01-20 11:45:43",45.07675,7.698277
1642679145,"2022-01-20 11:45:45",45.076592,7.698297
1642679147,"2022-01-20 11:45:47",45.076471,7.698406
1642679149,"2022-01-20 11:45:49",45.076323,7.698536
1642679151,"2022-01-20 11:45:51",45.076158,7.698652
1642679152,"2022-01-20 11:45:52",45.076071,7.698729
1642679153,"2022-01-20 11:45:53",45.075968,7.69882
1642679154,"2022-01-20 11:45:54",45.075874,7.698904
1642679155,"2022-01-20 11:45:55",45.075783,7.698985
1642679156,"2022-01-20 11:45:56",45.075694,7.699065
1642679157,"2022-01-20 11:45:57",45.075615,7.699135
1642679159,"2022-01-20 11:45:59",45.07548,7.699256
1642679161,"2022-01-20 11:46:01",45.075363,7.699361
1642679163,"2022-01-20 11:46:03",45.075279,7.699435
1642679173,"2022-01-20 11:46:13",45.075186,7.699517
1642679175,"2022-01-20 11:46:15",45.075035,7.699378
1642679177,"2022-01-20 11:46:17",45.074994,7.699252
1642679194,"2022-01-20 11:46:34",45.074947,7.699113
1642679197,"2022-01-20 11:46:37",45.074901,7.698939
1642679199,"2022-01-20 11:46:39",45.074837,7.698775
1642679201,"2022-01-20 11:46:41",45.07474,7.698598
1642679202,"2022-01-20 11:46:42",45.074691,7.698489
1642679204,"2022-01-20 11:46:44",45.074592,7.698275
1642679205,"2022-01-20 11:46:45",45.074536,7.698155
1642679206,"2022-01-20 11:46:46",45.074483,7.698041
1642679207,"2022-01-20 11:46:47",45.074428,7.697922
1642679208,"2022-01-20 11:46:48",45.074378,7.69778
1642679209,"2022-01-20 11:46:49",45.074297,7.697648
1642679210,"2022-01-20 11:46:50",45.074227,7.6975
1642679211,"2022-01-20 11:46:51",45.07417,7.697339
1642679212,"2022-01-20 11:46:52",45.074122,7.697189
1642679213,"2022-01-20 11:46:53",45.074094,7.697035
1642679214,"2022-01-20 11:46:54",45.074069,7.696905
1642679215,"2022-01-20 11:46:55",45.074051,7.696775
1642679217,"2022-01-20 11:46:57",45.074008,7.69654
1642679219,"2022-01-20 11:46:59",45.073955,7.696307
1642679221,"2022-01-20 11:47:01",45.073929,7.696073
1642679223,"2022-01-20 11:47:03",45.073912,7.695835
1642679225,"2022-01-20 11:47:05",45.073918,7.695622
1642679227,"2022-01-20 11:47:07",45.073941,7.695453
1642679231,"2022-01-20 11:47:11",45.073952,7.695326
1642679240,"2022-01-20 11:47:20",45.073984,7.695202
1642679249,"2022-01-20 11:47:29",45.074031,7.695046
1642679251,"2022-01-20 11:47:31",45.07407,7.694923
1642679253,"2022-01-20 11:47:33",45.074108,7.6948
1642679255,"2022-01-20 11:47:35",45.074137,7.694671
1642679257,"2022-01-20 11:47:37",45.074136,7.69453
1642679259,"2022-01-20 11:47:39",45.074111,7.694391
1642679262,"2022-01-20 11:47:42",45.074053,7.694259
1642679266,"2022-01-20 11:47:46",45.073952,7.694204
1642679289,"2022-01-20 11:48:09",45.073858,7.694157
1642679343,"2022-01-20 11:49:03",45.073947,7.694268
1642679344,"2022-01-20 11:49:04",45.073834,7.694143
1642679353,"2022-01-20 11:49:13",45.07374,7.694054
1642679355,"2022-01-20 11:49:15",45.073652,7.693989
1642679358,"2022-01-20 11:49:18",45.073526,7.693888
1642679360,"2022-01-20 11:49:20",45.073444,7.693814
1642679362,"2022-01-20 11:49:22",45.073351,7.693744
1642679364,"2022-01-20 11:49:24",45.073249,7.693672
1642679366,"2022-01-20 11:49:26",45.073115,7.693578
1642679368,"2022-01-20 11:49:28",45.072978,7.693478
1642679370,"2022-01-20 11:49:30",45.072829,7.693371
1642679371,"2022-01-20 11:49:31",45.072718,7.693296
1642679373,"2022-01-20 11:49:33",45.072551,7.693195
1642679375,"2022-01-20 11:49:35",45.072447,7.693128
1642679379,"2022-01-20 11:49:39",45.072355,7.693063
1642679391,"2022-01-20 11:49:51",45.072257,7.693046
1642679402,"2022-01-20 11:50:02",45.072158,7.69304
1642679407,"2022-01-20 11:50:07",45.07208,7.692945
1642679415,"2022-01-20 11:50:15",45.072055,7.692901
1642679426,"2022-01-20 11:50:26",45.072075,7.692814
1642679432,"2022-01-20 11:50:32",45.07192,7.692803
1642679435,"2022-01-20 11:50:35",45.071813,7.692695
1642679437,"2022-01-20 11:50:37",45.071725,7.692605
1642679440,"2022-01-20 11:50:40",45.071642,7.692671
1642679441,"2022-01-20 11:50:41",45.071685,7.692537
1642679445,"2022-01-20 11:50:45",45.071526,7.692441
1642679447,"2022-01-20 11:50:47",45.071411,7.692317
1642679449,"2022-01-20 11:50:49",45.07129,7.692241
1642679451,"2022-01-20 11:50:51",45.0712,7.692178
1642679453,"2022-01-20 11:50:53",45.071118,7.692103
1642679456,"2022-01-20 11:50:56",45.071016,7.692081
1642679464,"2022-01-20 11:51:04",45.071059,7.692197
1642679472,"2022-01-20 11:51:12",45.071125,7.692289
1642679480,"2022-01-20 11:51:20",45.071207,7.692375
1642679487,"2022-01-20 11:51:27",45.071292,7.692445
1642679494,"2022-01-20 11:51:34",45.071379,7.692516
1642679502,"2022-01-20 11:51:42",45.071346,7.692645
1642679696,"2022-01-20 11:54:56",45.071279,7.692734
1642679704,"2022-01-20 11:55:04",45.071204,7.692808
1642679710,"2022-01-20 11:55:10",45.071133,7.692897
1642679722,"2022-01-20 11:55:22",45.07115,7.693025
1642679742,"2022-01-20 11:55:42",45.071112,7.692798
1642679745,"2022-01-20 11:55:45",45.071044,7.692683
1642679755,"2022-01-20 11:55:55",45.070973,7.692761
1642679776,"2022-01-20 11:56:16",45.07095,7.692737
1642679783,"2022-01-20 11:56:23",45.070891,7.692627
1642679789,"2022-01-20 11:56:29",45.070813,7.692542
1642679806,"2022-01-20 11:56:46",45.070757,7.692644
1642679816,"2022-01-20 11:56:56",45.070814,7.692769
1642679923,"2022-01-20 11:58:43",45.070761,7.692628
1642680016,"2022-01-20 12:00:16",45.070663,7.692667
1642680086,"2022-01-20 12:01:26",45.070574,7.692692
1642680409,"2022-01-20 12:06:49",45.070636,7.692522
1642680491,"2022-01-20 12:08:11",45.070692,7.692642
1642680580,"2022-01-20 12:09:40",45.070571,7.692611
1642680650,"2022-01-20 12:10:50",45.070659,7.692767
1642680663,"2022-01-20 12:11:03",45.070583,7.692677
1642680745,"2022-01-20 12:12:25",45.07068,7.692758
1642680759,"2022-01-20 12:12:39",45.070644,7.692624
1642682084,"2022-01-20 12:34:44",45.070544,7.69259
1642683020,"2022-01-20 12:50:20",45.070587,7.692722
1642683159,"2022-01-20 12:52:39",45.070599,7.692866
1642684366,"2022-01-20 13:12:46",45.070688,7.692666
1642684515,"2022-01-20 13:15:15",45.070603,7.692594
1642684536,"2022-01-20 13:15:36",45.070685,7.692653
1642684586,"2022-01-20 13:16:26",45.070563,7.692597
1642684613,"2022-01-20 13:16:53",45.070618,7.692711
1642684614,"2022-01-20 13:16:54",45.070619,7.692706
1642686922,"2022-01-20 13:55:22",45.0708,7.69255
1642686927,"2022-01-20 13:55:27",45.070756,7.692619
1642686933,"2022-01-20 13:55:33",45.070656,7.69264
1642686936,"2022-01-20 13:55:36",45.070605,7.69267
1642686948,"2022-01-20 13:55:48",45.070674,7.692752
1642686960,"2022-01-20 13:56:00",45.070742,7.692661
1642686968,"2022-01-20 13:56:08",45.070847,7.692666
1642686978,"2022-01-20 13:56:18",45.07094,7.692673
1642687073,"2022-01-20 13:57:53",45.07098,7.692795
1642687081,"2022-01-20 13:58:01",45.071054,7.692901
1642687380,"2022-01-20 14:03:00",45.071053,7.693071
1642687438,"2022-01-20 14:03:58",45.071045,7.692942
1642687465,"2022-01-20 14:04:25",45.070962,7.692884
1642687524,"2022-01-20 14:05:24",45.07107,7.69288
1642694302,"2022-01-20 15:58:22",45.071117,7.692806
1642694307,"2022-01-20 15:58:27",45.071177,7.692979
1642694321,"2022-01-20 15:58:41",45.071239,7.693164
1642694336,"2022-01-20 15:58:56",45.071391,7.693407
1642694337,"2022-01-20 15:58:57",45.071391,7.693407
1642694338,"2022-01-20 15:58:58",45.071195,7.693577
1642694342,"2022-01-20 15:59:02",45.071195,7.693577
1642694345,"2022-01-20 15:59:05",45.071257,7.693329
1642694364,"2022-01-20 15:59:24",45.071215,7.69345
1642694385,"2022-01-20 15:59:45",45.071221,7.693315
1642694393,"2022-01-20 15:59:53",45.071179,7.6932
1642694399,"2022-01-20 15:59:59",45.071173,7.693023
1642694402,"2022-01-20 16:00:02",45.071096,7.692926
1642694406,"2022-01-20 16:00:06",45.071027,7.692825
1642694426,"2022-01-20 16:00:26",45.071021,7.692694
1642694475,"2022-01-20 16:01:15",45.070996,7.692831
1642694478,"2022-01-20 16:01:18",45.071011,7.69256
1642694479,"2022-01-20 16:01:19",45.070998,7.692517
1642694481,"2022-01-20 16:01:21",45.071108,7.69286
1642694491,"2022-01-20 16:01:31",45.071046,7.692988
1642694495,"2022-01-20 16:01:35",45.071135,7.693089
1642694499,"2022-01-20 16:01:39",45.071225,7.693077
1642694505,"2022-01-20 16:01:45",45.071296,7.692992
1642694513,"2022-01-20 16:01:53",45.071382,7.692952
1642694524,"2022-01-20 16:02:04",45.071404,7.692822
1642694533,"2022-01-20 16:02:13",45.071415,7.692678
1642694571,"2022-01-20 16:02:51",45.071345,7.692579
1642694587,"2022-01-20 16:03:07",45.071252,7.692535
1642694595,"2022-01-20 16:03:15",45.071171,7.692456
1642694605,"2022-01-20 16:03:25",45.071084,7.692378
1642694612,"2022-01-20 16:03:32",45.071004,7.692291
1642694622,"2022-01-20 16:03:42",45.070917,7.692209
1642694634,"2022-01-20 16:03:54",45.070836,7.692122
1642694644,"2022-01-20 16:04:04",45.070766,7.692025
1642694663,"2022-01-20 16:04:23",45.070847,7.692111
1642694671,"2022-01-20 16:04:31",45.070944,7.692157
1642694681,"2022-01-20 16:04:41",45.071026,7.692233
1642694690,"2022-01-20 16:04:50",45.071094,7.692335
1642694723,"2022-01-20 16:05:23",45.071186,7.692348
1642694753,"2022-01-20 16:05:53",45.071226,7.692465
1642694848,"2022-01-20 16:07:28",45.071326,7.692611
1642694850,"2022-01-20 16:07:30",45.071496,7.692672
1642694851,"2022-01-20 16:07:31",45.071615,7.692731
1642694853,"2022-01-20 16:07:33",45.071775,7.692809
1642694855,"2022-01-20 16:07:35",45.071899,7.69291
1642694857,"2022-01-20 16:07:37",45.072015,7.693008
1642694859,"2022-01-20 16:07:39",45.072123,7.693074
1642694862,"2022-01-20 16:07:42",45.072239,7.693126
1642694936,"2022-01-20 16:08:56",45.07233,7.693157
1642694942,"2022-01-20 16:09:02",45.07242,7.693213
1642694952,"2022-01-20 16:09:12",45.072502,7.693285
1642694957,"2022-01-20 16:09:17",45.072689,7.693405
1642694961,"2022-01-20 16:09:21",45.072789,7.69345
1642694969,"2022-01-20 16:09:29",45.072895,7.69346
1642695001,"2022-01-20 16:10:01",45.072903,7.693592
1642695050,"2022-01-20 16:10:50",45.072956,7.6937
1642695051,"2022-01-20 16:10:51",45.073049,7.693801
1642695052,"2022-01-20 16:10:52",45.073171,7.693897
1642695053,"2022-01-20 16:10:53",45.0733,7.693959
1642695054,"2022-01-20 16:10:54",45.073386,7.694001
1642695055,"2022-01-20 16:10:55",45.073533,7.694175
1642695056,"2022-01-20 16:10:56",45.073656,7.694254
1642695057,"2022-01-20 16:10:57",45.073762,7.694308
1642695059,"2022-01-20 16:10:59",45.073918,7.694394
1642695061,"2022-01-20 16:11:01",45.07402,7.694441
1642695065,"2022-01-20 16:11:05",45.074099,7.694521
1642695068,"2022-01-20 16:11:08",45.07407,7.694677
1642695070,"2022-01-20 16:11:10",45.074008,7.694795
1642695088,"2022-01-20 16:11:28",45.073982,7.694917
1642695092,"2022-01-20 16:11:32",45.073961,7.695152
1642695094,"2022-01-20 16:11:34",45.073943,7.695388
1642695095,"2022-01-20 16:11:35",45.073907,7.695566
1642695096,"2022-01-20 16:11:36",45.073857,7.695726
1642695097,"2022-01-20 16:11:37",45.07387,7.695885
1642695098,"2022-01-20 16:11:38",45.073885,7.696052
1642695099,"2022-01-20 16:11:39",45.073901,7.696199
1642695101,"2022-01-20 16:11:41",45.073925,7.696399
1642695103,"2022-01-20 16:11:43",45.073948,7.696564
1642695106,"2022-01-20 16:11:46",45.073982,7.696765
1642695108,"2022-01-20 16:11:48",45.074018,7.696961
1642695110,"2022-01-20 16:11:50",45.074068,7.697209
1642695111,"2022-01-20 16:11:51",45.07411,7.697339
1642695112,"2022-01-20 16:11:52",45.074174,7.697493
1642695113,"2022-01-20 16:11:53",45.07426,7.697649
1642695114,"2022-01-20 16:11:54",45.074306,7.697794
1642695115,"2022-01-20 16:11:55",45.074374,7.69794
1642695116,"2022-01-20 16:11:56",45.074442,7.698082
1642695117,"2022-01-20 16:11:57",45.074509,7.698215
1642695118,"2022-01-20 16:11:58",45.07457,7.698356
1642695120,"2022-01-20 16:12:00",45.07469,7.698606
1642695121,"2022-01-20 16:12:01",45.07475,7.698721
1642695123,"2022-01-20 16:12:03",45.074815,7.698909
1642695126,"2022-01-20 16:12:06",45.074858,7.699025
1642695146,"2022-01-20 16:12:26",45.074908,7.699161
1642695149,"2022-01-20 16:12:29",45.074953,7.699295
1642695152,"2022-01-20 16:12:32",45.075002,7.699446
1642695155,"2022-01-20 16:12:35",45.075048,7.699599
1642695157,"2022-01-20 16:12:37",45.075176,7.699585
1642695159,"2022-01-20 16:12:39",45.075273,7.699524
1642695161,"2022-01-20 16:12:41",45.075425,7.699388
1642695162,"2022-01-20 16:12:42",45.075509,7.699314
1642695163,"2022-01-20 16:12:43",45.075586,7.699244
1642695164,"2022-01-20 16:12:44",45.075678,7.699154
1642695165,"2022-01-20 16:12:45",45.075768,7.699078
1642695166,"2022-01-20 16:12:46",45.075858,7.698997
1642695167,"2022-01-20 16:12:47",45.075943,7.698923
1642695168,"2022-01-20 16:12:48",45.076035,7.698843
1642695169,"2022-01-20 16:12:49",45.076119,7.698773
1642695171,"2022-01-20 16:12:51",45.07625,7.698674
1642695173,"2022-01-20 16:12:53",45.076389,7.69857
1642695176,"2022-01-20 16:12:56",45.076489,7.698498
1642695184,"2022-01-20 16:13:04",45.076572,7.698419
1642695186,"2022-01-20 16:13:06",45.076714,7.698622
1642695188,"2022-01-20 16:13:08",45.076796,7.698735
1642695190,"2022-01-20 16:13:10",45.076852,7.69893
1642695192,"2022-01-20 16:13:12",45.076948,7.699064
1642695194,"2022-01-20 16:13:14",45.077012,7.699208
1642695196,"2022-01-20 16:13:16",45.077088,7.699381
1642695198,"2022-01-20 16:13:18",45.07716,7.699537
1642695199,"2022-01-20 16:13:19",45.077229,7.699705
1642695201,"2022-01-20 16:13:21",45.077306,7.699881
1642695203,"2022-01-20 16:13:23",45.077391,7.700086
1642695204,"2022-01-20 16:13:24",45.077439,7.700196
1642695205,"2022-01-20 16:13:25",45.07749,7.700339
1642695206,"2022-01-20 16:13:26",45.077522,7.700474
1642695208,"2022-01-20 16:13:28",45.077575,7.700719
1642695210,"2022-01-20 16:13:30",45.077618,7.700924
1642695212,"2022-01-20 16:13:32",45.077653,7.701098
1642695214,"2022-01-20 16:13:34",45.077688,7.701266
1642695217,"2022-01-20 16:13:37",45.077734,7.701439
1642695219,"2022-01-20 16:13:39",45.077776,7.701568
1642695228,"2022-01-20 16:13:48",45.077781,7.701703
1642695239,"2022-01-20 16:13:59",45.077867,7.70175
1642695247,"2022-01-20 16:14:07",45.07781,7.702003
1642695250,"2022-01-20 16:14:10",45.077701,7.702101
1642695252,"2022-01-20 16:14:12",45.077594,7.70219
1642695254,"2022-01-20 16:14:14",45.077495,7.702277
1642695256,"2022-01-20 16:14:16",45.077393,7.702369
1642695258,"2022-01-20 16:14:18",45.077224,7.702519
